[
    {
        "location_name": "Wellington",
        "lat": -41.286461,
        "long": 174.776230,
        "desc": " It's no wonder why fantasy films like The Lord of the Rings and The Hobbit trilogies were filmed here, where gorgeous settings can be found at every turn. "
    },
    {
        "location_name": "Paris", 
        "lat": 48.856613,
        "long": 2.352222,
        "desc": "The City of Light draws millions of visitors every year with its unforgettable ambiance."
    },
    {
        "location_name": "Bora Bora", 
        "lat": -16.5004,
        "long": -151.7415,
        "desc": "What this small island may lack in size it makes up for in sheer tropical beauty. Here, you'll find picturesque beaches, lush jungles and luxurious resorts."
    },
    {
        "location_name": "Glacier National Park", 
        "lat": 48.502281,
        "long": -113.988533,
        "desc": "Snow-capped peaks and azure lakes are just two reasons why Glacier National Park is one of the most-visited parks in the United States."
    },
    {   "location_name": "London",
        "lat": 51.507351,
        "long": -0.127758,
        "desc": "London is a world unto itself. The eclectic neighborhoods, which house a blend of historical landmarks and modern-day attractions, can keep you occupied for days."
    },
    {   "location_name": "Maui",
        "lat": 20.798363,
        "long": -156.331924,
        "desc": "Whether you're driving along the Road to Hana, enjoying a bird's-eye view of the lush coastline from a helicopter, snorkeling with sea turtles or simply relaxing on the island's honey- or black-colored beaches, you'll find that Maui is unlike any other tropical destination."
    },
    {   "location_name": "Tahiti",
        "lat": -17.650921,
        "long": -149.426041,
        "desc": "Travel to this island – the largest in French Polynesia – if you've been dreaming of a vacation spent lazing in a lavish overwater bungalow."
    },
    {   "location_name": "Tokyo",
        "lat": 35.689487,
        "long": 139.691711,
        "desc": "Simply setting foot in Japan's cosmopolitan capital is an experience within itself. A city known for its bustling streets adorned with flashing neon signs, Tokyo offers visitors a little bit of everything."
    },
    {   "location_name": "Phuket",
        "lat": 7.951933,
        "long": 98.338089,
        "desc": "Located in southern Thailand, Phuket offers something for everyone, especially budget-minded travelers. Everything from accommodations to spa treatments to boat tours come with a low price tag."
    },
    {   "location_name": "Barcelona",
        "lat": 41.385063,
        "long": 2.173404,
        "desc": "This Spanish city is a feast for the eyes: Visitors can walk past medieval architecture in the Barri Gòtic, snap photos of the intricate Sagrada Família and marvel at Gaudí's whimsical creations in Park Güell."
    },
    {   "location_name": "Bali",
        "lat": -8.340539,
        "long": 115.091949,
        "desc": "Serene temples and beautiful beaches are the biggest draws to this lush Indonesian paradise."
    },
    {   "location_name": "New York City",
        "lat": 40.712776,
        "long": -74.005974,
        "desc": "New York City hosts infinite urban adventures: You can wander through Central Park, tour the exhibits at the Met, catch a Broadway show or peruse SoHo's stylish boutiques."
    },
    {   "location_name": "Grand Canyon",
        "lat": 36.106964,
        "long": -112.112999,
        "desc": "Measuring roughly 277 miles long, 18 miles wide and a mile deep, the Grand Canyon offers plenty of outdoor activities for everyone from day-trippers to adventure junkies."
    },
    {   "location_name": "Dubai",
        "lat": 25.204849,
        "long": 55.270782,
        "desc": "Stunning Persian Gulf views, heart-pumping activities and historical landmarks await you in Dubai."
    },
    {   "location_name": "Machu Picchu",
        "lat": -13.163141,
        "long": -72.544960,
        "desc": "A visit to the 'Lost City of the Incas' is not for the faint of heart, but it is often described as life-changing (once you acclimate to the altitude)."
    },
    {   "location_name": "Sydney",
        "lat": -33.868820,
        "long": 151.209290,
        "desc": "This Australian city boasts a warm, sunny climate that is ideal for relaxing or surfing at world-renowned beaches like Coogee, Bondi and Manly."
    },
    {   "location_name": "Banff",
        "lat": 51.178509,
        "long": -115.574280,
        "desc": "An Alberta town full of acclaimed restaurants, breweries, boutiques and art galleries, Banff makes for an exciting vacation in every season."
    },
    {   "location_name": "Florence",
        "lat": 43.769562,
        "long": 11.255814,
        "desc": "Florence offers plenty of world-famous attractions, including the Duomo, Piazzale Michelangelo and Piazza della Signoria."
    },
    {   "location_name": "Yosemite",
        "lat": 37.865101,
        "long": -119.538330,
        "desc": "Year after year, millions of visitors travel to California's Yosemite National Park to stand in awe of natural wonders like Half Dome and Yosemite Falls."
    },
    {   "location_name": "Santorini",
        "lat": 36.393154,
        "long": 25.461510,
        "desc": "Frequently touted as a top honeymoon destination, this Greek isle woos newlyweds every year with its breathtaking sunsets, pastel-hued villages and colorful beaches."
    },
    {   "location_name": "Yellowstone",
        "lat": 44.427963,
        "long": -110.588455,
        "desc": "Considered by many to be a rite of passage for any American, a visit to this national park in Idaho, Montana and Wyoming will leave you in awe of nature's power."
    },
    {   "location_name": "St. Lucia",
        "lat": 13.9095248,
        "long": -60.9763851,
        "desc": "Dotted with luxurious boutique hotels, this Caribbean destination is tailor-made for lovebirds and adrenaline junkies."
    },
    {   "location_name": "Great Barrier Reef",
        "lat": -16.601959,
        "long": 145.522751,
        "desc": "The globe's largest coral reef system – and one of the original Seven Natural Wonders of the World – touts incredible scenery, whether you view it underwater, from the air or by boat."
    },
    {   "location_name": "San Francisco",
        "lat": 37.774929,
        "long": -122.419418,
        "desc": "Home to some of America's most recognizable landmarks – including the Golden Gate Bridge, Fisherman's Wharf and Alcatraz Island – San Francisco has the ability to satisfy outdoorsy types, foodies and curious wanderers of all ages."
    },
    {   "location_name": "Amsterdam",
        "lat": 52.370216,
        "long": 4.895168,
        "desc": "Famous museums, tulips, canal-lined streets, coffee shops, and high-end boutiques await you in Amsterdam."
    },
    {   "location_name": "Rio de Janeiro",
        "lat": -22.906847,
        "long": -43.172897,
        "desc": "Christ the Redeemer and the shores of Copacabana and Ipanema beaches are only some reasons why you should plan a trip to Rio."
    },
    {   "location_name": "Argentine Patagonia",
        "lat": -37.897280,
        "long": -63.852400,
        "desc": "Argentine Patagonia is a must-visit destination if you consider yourself an adventurous traveler."
    },
    {   "location_name": "Costa Rica",
        "lat": 9.748917,
        "long": -83.753426,
        "desc": "From volcanic mountains to verdant rainforests to stunning shorelines, Costa Rica is a Central American gem."
    },
    {   "location_name": "Niagara Falls",
        "lat": 43.096214,
        "long": -79.037743,
        "desc": "A spectacular cluster of three waterfalls, Niagara Falls is a must-see if you want a glimpse of some of North America's best sites."
    },
    {   "location_name": "Seoul",
        "lat": 37.566536,
        "long": 126.977966,
        "desc": "As the largest city in South Korea, this dynamic city is a bewitching mix of ancient and modern, packaged in a surprisingly compact metropolis."
    },
    {   "location_name": "Rome",
        "lat": 41.902782,
        "long": 12.496365,
        "desc": "When you visit the Eternal City, prepare to cross a few must-see attractions – including the Colosseum, the Trevi Fountain and the Pantheon – off of your bucket list."
    },
    {   "location_name": "Dublin",
        "lat": 53.350140,
        "long": -6.266155,
        "desc": "Known for its traditions, fine literature, folklore, customary music and dance, and fresh pints of Guinness are never in short supply."
    },
    {   "location_name": "Edinburgh",
        "lat": 55.953251,
        "long": -3.188267,
        "desc": "Burrowed beside long-dormant volcanoes and reigning over green moorlands, Edinburg is known for more than its staggering landscape."
    },
    {   "location_name": "Maldives",
        "lat": -0.616596,
        "long": 73.093135,
        "desc": "It is not cheap or easy to reach, but this isolated paradise between the Arabian and Laccadive seas is the personification of a dreamy tropical vacation."
    },
    {   "location_name": "Cancun",
        "lat": 21.161907,
        "long": -86.851524,
        "desc": "The seemingly endless stretches of white sand and turquoise water draw millions of visitors to Cancun each year."
    },
    {   "location_name": "Amalfi Coast",
        "lat": 40.634369,
        "long": 14.602560,
        "desc": "Few places in the world can rival the natural beauty found along the Amalfi Coast. This region on the southern edge of Italy's Sorrentine Peninsula is home to 13 quaint towns etched into seaside cliffs."
    },
    {   "location_name": "New Orleans",
        "lat": 29.951065,
        "long": -90.071533,
        "desc": "Few American cities are home to cultures as unique as the Big Easy's. Offering a blend of influences from the Caribbean, Europe and other locales, New Orleans has a distinct personality."
    },
    {   "location_name": "Zion National Park",
        "lat": 37.298203,
        "long": -113.026299,
        "desc": "Awe-inspiring panoramas are available everywhere you turn in Utah's Zion National Park. For some of the best views, hikers recommend trekking the Angels Landing trail, which is full of challenging switchbacks and thrilling heights."
    },
    {   "location_name": "Grand Teton National Park",
        "lat": 43.802460,
        "long": -110.483078,
        "desc": "In Grand Teton National Park, Wyoming's snow-topped Teton Mountains rub elbows with the Snake River, Jackson and Jenny lakes, wildflower fields, swamps and more."
    },
    {   "location_name": "Washington D.C.",
        "lat": 38.907192,
        "long": -77.036873,
        "desc": "The nation's capital has a lot going for it. Fill your days with visits to iconic landmarks like the Lincoln Memorial and the Washington Monument."
    },
    {   "location_name": "Seattle",
        "lat": 47.606209,
        "long": -122.332069,
        "desc": "Seattle's laid-back attitude and diverse neighborhoods more than make up for its consistently cloudy weather. Plus, it's home to some of the country's best coffee and a thriving arts scene, plenty of history, culture and exciting outdoor activities."
    },
    {   "location_name": "Portland",
        "lat": 45.512230,
        "long": -122.658722,
        "desc": "From its manicured green spaces to its deliciously diverse food scene, Portland has become a must-see destination in the Pacific Northwest."
    },
    {   "location_name": "Vancouver, B.C.",
        "lat": 49.258843,
        "long": -123.124359,
        "desc": "Surrounded by mountains and beaches, Vancouver is both an urban and a natural playground: Its chic atmosphere, high-fashion boutiques and fondness for health-conscious eating have earned it the nickname Hollywood North."
    },
    {   "location_name": "Boston",
        "lat": 42.360081,
        "long": -71.058884,
        "desc": "Boston is home to numerous pubs, food markets and shopping thoroughfares, as well as top-notch universities known for their charming architecture, picturesque green spaces and wicked smart students."
    },
    {   "location_name": "Las Vegas",
        "lat": 36.169941,
        "long": -115.139832,
        "desc": "Whether you choose to spend your trip testing your luck at its casinos, enjoying the highly regarded buffets or relaxing at extravagant spas and chic pools, Las Vegas offers something for everyone. "
    },
    {   "location_name": "Miami",
        "lat": 25.761681,
        "long": -80.191788,
        "desc": "Travel to this South Florida city to experience a melting pot of cultures. The vibrant food and nightlife scenes are worth the trip alone, so grab a frita in Little Havana before dancing the night away in one of the city's countless clubs."
    },
    {   "location_name": "San Diego",
        "lat": 32.715736,
        "long": -117.161087,
        "desc": "The city boasts a variety of activities, ranging from hiking in Torrey Pines State Natural Reserve – which sits just north of the city – to surfing at Mission and Pacific beaches."
    },
    {   "location_name": "Jeju Island",
        "lat": 33.489010,
        "long": 126.498299,
        "desc": "Blessed with tangerine groves, swaying palm trees, white sand beaches, and a verdant landscape, Korea's southernmost volcanic island has long been a favored holiday and honeymoon retreat for natives and neighbors."
    },
    {   "location_name": "Busan",
        "lat": 35.179554,
        "long": 129.075638,
        "desc": "This large, spread out port metropolis seems to have it all. From one-of-a-kind temples and death-defying coastal walkways, to the country’s largest markets and most popular beaches."
    },
    {   "location_name": "Hong Kong",
        "lat": 22.396427,
        "long": 114.109497,
        "desc": "This British-Chinese hybrid astounds visitors with its striking juxtaposition of dense skyscrapers and lush landscapes."
    },
    {   "location_name": "Shanghai",
        "lat": 31.230391,
        "long": 121.473701,
        "desc": "Discover your own dining gems in Zhujiajiao. Find a calm spot along the Bund. Reflect at the Jade Buddha Temple. There are numerous ways to plan your own adventure."
    },
    {   "location_name": "Singapore",
        "lat": 1.352083,
        "long": 103.819839,
        "desc": "Singapore is unique in that it's a melting pot of Asian cultures. This fusion has led to prosperity that takes form in the city's colorful neighborhoods, eclectic culinary scene and overall modernity."
    },
    {   "location_name": "Salzburg",
        "lat": 47.800500,
        "long": 13.044410,
        "desc": "If you like the idea of beautiful castles, cathedrals and other Baroque buildings covered in snow, one look at Salzburg, Austria, might be enough to lure you in. "
    },
    {   "location_name": "Düsseldorf",
        "lat": 51.224960,
        "long": 6.775670,
        "desc": "Düsseldorf houses “the longest bar in the world,” Germany’s finest shopping boulevard Königsallee, and countless museums, theatres and attractions underscoring the city as a major arts center."
    },
    {   "location_name": "Venice",
        "lat": 45.440845,
        "long": 12.315515,
        "desc": "There are few destinations in the world quite like Venice. Its uniqueness can largely be attributed to the canals that run through the city like roads, carrying water taxis and buses in addition to its fleet of famous gondolas."
    },
    {   "location_name": "Stockholm",
        "lat": 59.329323,
        "long": 18.068581,
        "desc": "Stockholm's charming cobblestone-lined Old Town features a number of top attractions, such as the Royal Palace and the Nobel Prize Museum."
    },
    {   "location_name": "Swiss Alps",
        "lat": 46.887619,
        "long": 9.657000,
        "desc": "While skiing, hiking and snowboarding tend to dominate this region, you'll also discover quaint towns, serene lakes and gorgeous scenery."
    },
    {   "location_name": "Prague",
        "lat": 50.075539,
        "long": 14.437800,
        "desc": "A vacation in Prague will leave you feeling as if you've stepped into a fairy tale."
    },
    {   "location_name": "Athens",
        "lat": 37.983810,
        "long": 23.727539,
        "desc": "Athens was made for history buffs and architecture aficionados thanks to it housing the world-renowned Acropolis and Ancient Agora."
    },
    {   "location_name": "Cyprus",
        "lat": 35.126411,
        "long": 33.429859,
        "desc": "Take a dip at one of Cyprus' many beaches or in the Adonis Baths, rumored to be a favorite spot among Greek gods."
    },
    {   "location_name": "Budapest",
        "lat": 47.497913,
        "long": 19.040236,
        "desc": "The capital of Hungary is filled with an assortment of monuments, museums and religious sites."
    },
    {   "location_name": "Copenhagen",
        "lat": 55.676098,
        "long": 12.568337,
        "desc": "Copenhagen is full of everything from top-notch art and history museums to incredible castles and palaces for visitors to explore."
    },
    {   "location_name": "Prince Edward Island",
        "lat": 46.510712,
        "long": -63.416813,
        "desc": "Home to rolling green hills, red sandstone cliffs and a delicious bounty of seafood, this is the place to travel for a relaxing respite from Canada's more adventure-driven destinations."
    },
    {   "location_name": "Bangkok",
        "lat": 13.756331,
        "long": 100.501762,
        "desc": "Bangkok boasts everything from flashy high-end malls to very affordable mass markets. You're also bound to discover a number of streets with shopkeepers selling specialized goods."
    },
    {   "location_name": "Cairo",
        "lat": 30.044420,
        "long": 31.235712,
        "desc": "Take some time to relax over a cup of tea, to wander the ancient streets and to watch the sun lower over the mighty Nile River. It won't take long for the city's treasures to reveal themselves."
    },
    {   "location_name": "Malta",
        "lat": 35.937496,
        "long": 14.375416,
        "desc": "With so many rich and colourful traditions which have withstood the test of time, the amount of pride the Maltese have for their culture is highly understandable. With elaborate fireworks displays, rowdy village festas, and outstanding hospitality, not to mention the mind-blowingly delicious food."
    },
    {   "location_name": "St. Petersburg",
        "lat": 59.934280,
        "long": 30.335098,
        "desc": "An epicenter of distinctly Russian culture, as the place where literature and music greats like Dostoyevsky, Tchaikovsky and Prokofiev all found their voice."
    },
    {   "location_name": "Alice Springs",
        "lat": -23.700680,
        "long": 133.880710,
        "desc": "The number one destination in Outback Austalia. Make Alice Springs your base for exploring the Outback!"
    },
    {   "location_name": "Jaipur",
        "lat": 26.912434,
        "long": 75.787270,
        "desc": "Travel to Rajasthan's capital to marvel at incredible architecture. Jaipur's biggest claim to fame is spellbinding Hawa Mahal, a pink palace that was modeled after Krishna's crown and features an astounding 953 windows."
    },
    {   "location_name": "Nepal",
        "lat": 28.394857,
        "long": 84.124008,
        "desc": "Nepal is home to seven of the world’s highest peaks. These peaks are all over 20,000 feet and seeing them in person is an incredible experience."
    },
    {   "location_name": "Gorkhi-Terelj National Park",
        "lat": 47.888432,
        "long": 107.422822,
        "desc": "A natural treasure and outdoor adventurers’ paradise. Its stark, sweeping landscape and numerous natural attractions draw tourists from all over the world who want to explore the unspoiled land, often on horseback or camels."
    },
    {   "location_name": "Tanzania",
        "lat": -6.369028,
        "long": 34.888821,
        "desc": "Tanzania boasts otherworldly natural wonders, including red-hued Lake Natron, Ngorongoro Conservation Area's expansive crater and Mount Kilimanjaro, the tallest mountain in Africa."
    }
]
